PAIS_ISO3,PAIS_ISO2,PAIS_NOM,COD_CONTINENTE,CONTINENTE,OMS_REGION,DESC_OMS_REGION,PAIS_NOM_2,country_code_x,longitude_x,latitude_x,POBLACION,country_code_y,longitude_y,latitude_y,GDP per capita (current US$),Individuals using the Internet (% of population),People using at least basic drinking water services (% of population),People using at least basic sanitation services (% of population),Population density (people per sq. km of land area),Rural population (% of total population),Urban population (% of total population),AverageTemperature,Altura Promedio
AGO,AO,Angola,AF,Africa,AFRO,Africa,Angola,AO,17.873887,-11.202692,35588987.0,AO,17.873887,-11.202692,1502.95075414518,32.55014678,57.16773762,51.66032915,26.8135766423358,33.175,66.825,22.508965200000002,1112.0
BDI,BI,Burundi,AF,Africa,AFRO,Africa,Burundi,BI,29.918886,-3.373056,12889576.0,BI,29.918886,-3.373056,216.827417445762,3.787954422,62.20712225,45.72751068,475.865537383178,86.292,13.708,20.816609432499998,1504.0
BEN,BJ,Benin,AF,Africa,AFRO,Africa,Benin,BJ,2.315834,9.30769,13352864.0,BJ,2.315834,9.30769,1237.9492953503,28.22915416,65.41412299,16.96288434,112.12418410784,51.585,48.415,27.937785254999998,273.0
BFA,BF,Burkina Faso,AF,Africa,AFRO,Africa,Burkina Faso,BF,-1.561593,12.238333,22673762.0,BF,-1.561593,12.238333,833.244336106076,13.93797176,47.21485446,21.6643726,78.6645687134503,69.393,30.607,28.9099885525,297.0
BWA,BW,Botswana,AF,Africa,AFRO,Africa,Botswana,BW,24.684866,-22.328474,2630296.0,BW,24.684866,-22.328474,5875.07060571282,72.74801998,92.21356307,80.02624315,4.49314841282445,29.123,70.877,22.50548351666667,1013.0
CAF,CF,Central African Republic,AF,Africa,AFRO,Africa,Central African Republic,CF,20.939444,6.611111,5579144.0,CF,20.939444,6.611111,435.469248170025,8.565672483,37.20240205,14.11863478,8.5765514141706,57.802,42.198,25.987834248333332,
CIV,CI,Cote d'Ivoire,AF,Africa,AFRO,Africa,Côte d’Ivoire,CI,-5.54708,7.539989,28160542.0,CI,-5.54708,7.539989,2349.06988200032,41.3736053,70.90907039,34.5659625,84.3138050314465,48.294,51.706,,250.0
CMR,CM,Cameroon,AF,Africa,AFRO,Africa,Cameroon,CM,12.354722,7.369722,27914536.0,CM,12.354722,7.369722,1539.13054650019,45.52922268,65.72041818,44.63112443,56.040885532356,42.44,57.56,25.067209706666663,667.0
COD,CD,Congo (Kinshasa),AF,Africa,AFRO,Africa,Democratic Republic of the Congo,CD,21.758664,-4.038333,99010212.0,CD,21.758664,-4.038333,524.666686258939,22.86494849,45.95212696,15.38867157,40.9577045058556,54.362,45.638,,726.0
COG,CG,Congo (Brazzaville),AF,Africa,AFRO,Africa,Congo,CG,15.827659,-0.228021,5970424.0,CG,15.827659,-0.228021,1838.44812411674,,73.78451158,20.45974611,16.6974348462665,32.171,67.829,,430.0
COM,KM,Comoros,AF,Africa,AFRO,Africa,Comoros,KM,43.872219,-11.875001,836774.0,KM,43.872219,-11.875001,1519.58677981636,21.16321517,,,433.189682966147,70.62,29.38,26.478707874999998,
CPV,CV,Cape Verde,AF,Africa,AFRO,Africa,Cabo Verde,CV,-24.013197,16.002082,593149.0,CV,-24.013197,16.002082,3223.73560213047,63.16119125,88.76960642,79.11569269,144.575682382134,33.348,66.652,25.0559812275,
DJI,DJ,Djibouti,AF,Africa,EMRO,Mediterráneo Oriental,Djibouti,DJ,42.590275,11.825138,1120849.0,DJ,42.590275,11.825138,2917.9962809563,61.26152265,76.04992021,66.72263564,47.0300258843831,21.938,78.062,29.74414514833333,
DZA,DZ,Algeria,AF,Africa,AFRO,Africa,Algeria,DZ,1.659626,28.033886,44903225.0,DZ,1.659626,28.033886,3354.15730265114,63.94999611,94.43732996,85.96546957,18.2436570559099,26.267,73.733,24.23984295,
EGY,EG,Egypt,AF,Africa,EMRO,Mediterráneo Oriental,Egypt,EG,30.802498,26.820553,110990103.0,EG,30.802498,26.820553,3571.5569065135,71.91420097,99.44017596,97.32547363,107.956335325732,57.217,42.783,23.682254579166667,321.0
ERI,ER,Eritrea,AF,Africa,AFRO,Africa,Eritrea,ER,39.782334,15.179384,3684032.0,ER,39.782334,15.179384,,14.17998705,,,29.3774260253951,58.653,41.347,27.694040750833334,853.0
ESH,EH,Western Sahara,AF,Africa,Z999,Sin determinar,Western Sahara,EH,-12.885834,24.215527,,EH,-12.885834,24.215527,,,,,,,,23.439107142500003,256.0
ETH,ET,Ethiopia,AF,Africa,AFRO,Africa,Ethiopia,ET,40.489673,9.145,123379924.0,ET,40.489673,9.145,918.652594077418,16.42294727,49.61557274,8.910277929,103.840062771756,78.305,21.695,23.875707418333334,1330.0
GAB,GA,Gabon,AF,Africa,AFRO,Africa,Gabon,GA,11.609444,-0.803689,2388992.0,GA,11.609444,-0.803689,6680.08267035331,70.78874796,85.3419306,49.82416677,8.89732215624636,9.908,90.092,24.911266025,377.0
GHA,GH,Ghana,AF,Africa,AFRO,Africa,Ghana,GH,-1.023194,7.946527,33475870.0,GH,-1.023194,7.946527,2176.57621802942,56.68215981,85.79099665,23.70247451,141.431796706412,42.651,57.349,27.490633699166665,190.0
GIN,GN,Guinea,AF,Africa,AFRO,Africa,Guinea,GN,-9.696645,9.945587,13859341.0,GN,-9.696645,9.945587,1073.6593389589,28.8232306,63.96178874,29.77614039,53.7406519615823,63.125,36.875,26.312939104166663,472.0
GMB,GM,Gambia,AF,Africa,AFRO,Africa,Gambia,GM,-15.310139,13.443182,2705992.0,GM,-15.310139,13.443182,704.030457831626,31.60419095,80.94040714,46.87122407,254.34733201581,37.418,62.582,28.35178434166667,34.0
GNB,GW,Guinea-Bissau,AF,Africa,AFRO,Africa,Guinea-Bissau,GW,-15.180413,11.803749,2105566.0,GW,-15.180413,11.803749,710.258132977055,27.90528061,59.01691221,18.2250438,71.6866287339972,55.804,44.196,,70.0
GNQ,GQ,Equatorial Guinea,AF,Africa,AFRO,Africa,Equatorial Guinea,GQ,10.267895,1.650801,1674908.0,GQ,10.267895,1.650801,6327.59896192339,53.83614077,,,56.9001426024955,26.9,73.1,25.606118589999998,577.0
KEN,KE,Kenya,AF,Africa,AFRO,Africa,Kenya,KE,37.906193,-0.023559,54027487.0,KE,37.906193,-0.023559,1936.25075166045,25.53293999,61.63289158,32.69894486,91.3409354464631,72.005,27.995,24.849979395833333,762.0
LBR,LR,Liberia,AF,Africa,AFRO,Africa,Liberia,LR,-9.429499,6.428055,5302681.0,LR,-9.429499,6.428055,597.529691893048,27.95308059,75.26179159,18.16357204,52.8196013289037,47.911,52.089,26.246026099166667,243.0
LBY,LY,Libya,AF,Africa,EMRO,Mediterráneo Oriental,Libya,LY,17.228331,26.3351,6812341.0,LY,17.228331,26.3351,7034.65836451166,,99.8915238,92.10600221,3.78163724609841,19.309,80.691,23.382563185833334,423.0
LSO,LS,Lesotho,AF,Africa,AFRO,Africa,Lesotho,LS,28.233608,-29.609988,2305825.0,LS,28.233608,-29.609988,939.504249056769,42.85616632,72.17603927,50.31807569,74.2457180500659,70.972,29.028,14.407185440583334,2161.0
MAR,MA,Morocco,AF,Africa,EMRO,Mediterráneo Oriental,Morocco,MA,-7.09262,31.791702,37457971.0,MA,-7.09262,31.791702,3258.10498046875,84.12036305,90.40234468,87.25043077,82.2065247591306,36.468,63.532,18.763979395,909.0
MDG,MG,Madagascar,AF,Africa,AFRO,Africa,Madagascar,MG,46.869107,-18.766947,29611714.0,MG,46.869107,-18.766947,462.40422880067,13.71677775,53.38588491,12.31140011,48.5135390168443,61.466,38.534,23.5537184075,615.0
MLI,ML,Mali,AF,Africa,AFRO,Africa,Mali,ML,-3.996166,17.570692,22593590.0,ML,-3.996166,17.570692,822.90613752314,27.85653831,82.54729103,45.39420987,17.3940451896836,56.091,43.909,29.31019001916667,343.0
MOZ,MZ,Mozambique,AF,Africa,AFRO,Africa,Mozambique,MZ,35.529562,-18.665695,32969518.0,MZ,35.529562,-18.665695,454.062364345564,16.31226657,63.36942563,37.20486798,39.6478025890791,62.926,37.074,24.266510073333336,345.0
MRT,MR,Mauritania,AF,Africa,AFRO,Africa,Mauritania,MR,-10.940835,21.00789,4736139.0,MR,-10.940835,21.00789,1868.46824831502,53.51699827,71.68104923,49.83422278,4.36461045891142,44.673,55.327,28.585843407499997,276.0
MUS,MU,Mauritius,AF,Africa,AFRO,Africa,Mauritius,MU,57.552152,-20.348404,1262523.0,MU,57.552152,-20.348404,9005.46202174274,64.88490358,99.8662547,,623.652216748769,59.24,40.76,24.354582417499998,
MWI,MW,Malawi,AF,Africa,AFRO,Africa,Malawi,MW,34.301525,-13.254308,20405317.0,MW,34.301525,-13.254308,622.184591368491,18.92676996,70.04772851,26.55426445,205.526739499364,82.573,17.427,22.1323443225,779.0
MYT,YT,Mayotte,AF,Africa,AFRO,Africa,Mayotte,YT,45.166244,-12.8275,,YT,45.166244,-12.8275,,,,,,,,27.121908424166666,
NAM,NM,Namibia,AF,Africa,AFRO,Africa,Namibia,,17.0,-22.0,2567012.0,,,,4252.04180684509,48.76420428,84.27003628,35.25996865,3.02335507536834,47.967,52.033,21.2156149275,1141.0
NER,NE,Niger,AF,Africa,AFRO,Africa,Niger,NE,8.081666,17.607789,26207977.0,NE,8.081666,17.607789,564.821997328603,21.46379477,46.91179747,14.75130566,19.2102620983658,83.374,16.626,28.377290292500003,484.0
NGA,NG,Nigeria,AF,Africa,AFRO,Africa,Nigeria,NG,8.675277,9.081999,218541212.0,NG,8.675277,9.081999,2074.61392802438,51.45837417,77.60905338,42.72256141,228.737667028997,48.042,51.958,27.541461996666666,380.0
REU,RE,Reunion,AF,Africa,AFRO,Africa,Réunion,RE,55.536384,-21.115141,,RE,55.536384,-21.115141,,,,,,,,24.118249083333335,
RWA,RW,Rwanda,AF,Africa,AFRO,Africa,Rwanda,RW,29.873888,-1.940278,13776698.0,RW,29.873888,-1.940278,773.820557473379,23.8,60.41450115,68.83344246,532.888609647345,82.568,17.432,19.978414375833335,1598.0
SDN,SD,Sudan,AF,Africa,EMRO,Mediterráneo Oriental,South Sudan,SD,30.217636,12.862807,46874204.0,SD,30.217636,12.862807,608.33251953125,28.4,60.4486756,36.89208291,23.7904100642398,64.747,35.253,27.91455357166667,568.0
SEN,SN,Senegal,AF,Africa,AFRO,Africa,Senegal,SN,-14.452362,14.497401,17316449.0,SN,-14.452362,14.497401,1492.47590420334,47.17942509,84.90523779,56.77646012,85.3691372773074,51.878,48.122,28.801924908333334,69.0
SHN,SH,Saint Helena,AF,Africa,AFRO,Africa,Saint Helena Ascension and Tristan da Cunha,SH,-10.030696,-24.143474,,SH,-10.030696,-24.143474,,,,,,,,,
SLE,SL,Sierra Leone,AF,Africa,AFRO,Africa,Sierra Leone,SL,-11.779889,8.460555,8605718.0,SL,-11.779889,8.460555,493.432252431844,18.0,63.76628562,16.50967615,114.075505680244,57.077,42.923,26.887852105833332,279.0
SOM,SO,Somalia,AF,Africa,EMRO,Mediterráneo Oriental,Somalia,SO,46.199616,5.152149,17597511.0,SO,46.199616,5.152149,416.217774718244,,56.47697339,39.30661638,26.3605317690567,53.859,46.141,27.7377097075,410.0
STP,ST,Sao Tome and Principe,AF,Africa,AFRO,Africa,Sao Tome and Principe,ST,6.613081,0.18636,227380.0,ST,6.613081,0.18636,2161.31020078768,40.31067242,78.22645516,47.62107761,227.751041666667,25.646,74.354,,
SWZ,SZ,Swaziland,AF,Africa,AFRO,Africa,Eswatini,SZ,31.465866,-26.522503,1201670.0,SZ,31.465866,-26.522503,3372.90463883844,56.42093688,70.75307095,64.29217458,68.6427325581395,75.829,24.171,19.534277015,
SYC,SC,Seychelles,AF,Africa,AFRO,Africa,Seychelles,SC,55.491977,-4.679574,100060.0,SC,55.491977,-4.679574,12020.021913519,75.46919577,,100.0,214.047826086957,42.454,57.546,27.538701464166667,
TCD,TD,Chad,AF,Africa,AFRO,Africa,Chad,TD,18.732207,15.454166,17723315.0,TD,18.732207,15.454166,643.772216240999,11.66019198,46.18753479,12.06370114,13.2184728398983,76.48,23.52,27.921512819166665,543.0
TGO,TG,Togo,AF,Africa,AFRO,Africa,Togo,TG,0.824782,8.619543,8848699.0,TG,0.824782,8.619543,875.245409906734,29.07583302,68.58372009,18.60319806,155.223018937305,57.2,42.8,27.6333420325,
TUN,TN,Tunisia,AF,Africa,EMRO,Mediterráneo Oriental,Tunisia,TN,9.537499,33.886917,12356117.0,TN,9.537499,33.886917,3497.73323057269,72.80748713,97.54330899,97.43445889,78.2809152935118,30.432,69.568,21.251246795,246.0
TZA,TZ,Tanzania,AF,Africa,AFRO,Africa,United Republic of Tanzania,TZ,34.888822,-6.369028,65497748.0,TZ,34.888822,-6.369028,1104.16442871094,23.44750876,60.71679759,31.7607758,69.6596500338677,64.773,35.227,23.069635073333334,1018.0
UGA,UG,Uganda,AF,Africa,AFRO,Africa,Uganda,UG,32.290275,1.373333,47249585.0,UG,32.290275,1.373333,846.881199214807,6.1,55.85504921,19.78963715,221.447292040694,75.046,24.954,23.756720238333333,
ZAF,ZA,South Africa,AF,Africa,AFRO,Africa,South Africa,ZA,22.937506,-30.559482,59893885.0,ZA,22.937506,-30.559482,5741.64124877252,70.32030996,93.88505744,78.47461071,48.4728478513548,32.646,67.354,17.94360851833333,1034.0
ZMB,ZM,Zambia,AF,Africa,AFRO,Africa,Zambia,ZM,27.849332,-13.133897,20017675.0,ZM,27.849332,-13.133897,956.831747486282,18.05191463,65.41238357,31.89963255,25.4613527219898,55.371,44.629,21.9378337925,1138.0
ZWE,ZW,Zimbabwe,AF,Africa,AFRO,Africa,Zimbabwe,ZW,29.154857,-19.015438,16320537.0,ZW,29.154857,-19.015438,1372.69667433317,29.29856532,62.66645761,35.19236284,40.5057929430012,67.758,32.242,21.695298990833333,961.0
ATA,AQ,Antarctica,AN,Antartida,Z999,Sin determinar,Antarctica,AQ,-0.071389,-75.250973,,AQ,-0.071389,-75.250973,,,,,,,,,2300.0
ATF,TF,French Southern Territories,AN,Antartida,Z999,Sin determinar,French Southern Territories,TF,69.348557,-49.280366,,TF,69.348557,-49.280366,,,,,,,,,
BVT,BV,Bouvet Island,AN,Antartida,Z999,Sin determinar,Bouvet Island,BV,3.413194,-54.423199,,BV,3.413194,-54.423199,,,,,,,,,
HMD,HM,Heard Island and McDonald Mcdonald Islands,AN,Antartida,Z999,Sin determinar,Heard Island and McDonald Mcdonald Islands,HM,73.504158,-53.08181,,HM,73.504158,-53.08181,,,,,,,,,
SGS,GS,South Georgia and the Islands,AN,Antartida,Z999,Sin determinar,South Georgia and the Islands,GS,-36.587909,-54.429579,,GS,-36.587909,-54.429579,,,,,,,,,
AFG,AF,Afghanistan,AS,Asia,EMRO,Mediterráneo Oriental,Afghanistan,AF,67.709953,33.93911,41128771.0,AF,67.709953,33.93911,516.866797351726,18.4,75.09141325,50.49964687,59.7522806371985,73.974,26.026,15.329334248583335,1884.0
ARE,AE,United Arab Emirates,AS,Asia,EMRO,Mediterráneo Oriental,United Arab Emirates,AE,53.847818,23.424076,9441129.0,AE,53.847818,23.424076,37629.1741680652,100.0,99.965596,99.22957,130.770050689946,12.952,87.048,29.095662546666663,
ARM,AM,Armenia,AS,Asia,EURO,Europa,Armenia,AM,45.038189,40.069099,2780469.0,AM,45.038189,40.069099,4505.86774552638,76.50770055,99.97118069,93.93674174,98.5461187214612,36.687,63.313,9.94598305925,1792.0
AZE,AZ,Azerbaijan,AS,Asia,EURO,Europa,Azerbaijan,AZ,47.576927,40.143105,10175016.0,AZ,47.576927,40.143105,4229.91064904503,84.59999573,96.04337613,,122.124736829369,43.603,56.397,12.68609890225,384.0
BGD,BD,Bangladesh,AS,Asia,SEARO,Sudeste Asiático,Bangladesh,BD,90.356331,23.684994,171186372.0,BD,90.356331,23.684994,2233.30589251829,32.87,97.69796025,54.16469553,1286.17155258508,61.823,38.177,25.475907965833333,85.0
BHR,BH,Bahrain,AS,Asia,EMRO,Mediterráneo Oriental,Bahrain,BH,50.637772,25.930414,1472233.0,BH,50.637772,25.930414,23433.1872362574,99.67103159,100.0,100.0,1882.12611464968,10.494,89.506,27.292021979166666,
BRN,BN,Brunei,AS,Asia,WPRO,Pacífico Occidental,Brunei Darussalam,BN,114.727669,4.535277,449002.0,BN,114.727669,4.535277,27179.3444218249,96.06912594,99.9000368,,83.8187855787476,21.75,78.25,,478.0
BTN,BT,Bhutan,AS,Asia,SEARO,Sudeste Asiático,Bhutan,BT,90.433601,27.514162,782455.0,BT,90.433601,27.514162,3009.92551590976,79.86984884,97.31322263,76.50655402,20.2544834819088,57.684,42.316,12.494016025833334,2200.0
CCK,CC,Cocos (Keeling) Islands,AS,Asia,SEARO,Sudeste Asiático,Cocos (Keeling) Islands,CC,96.870956,-12.164165,,CC,96.870956,-12.164165,,,,,,,,,91.0
CHN,CN,China,AS,Asia,WPRO,Pacífico Occidental,China,CN,104.195397,35.86166,1412175000.0,CN,104.195397,35.86166,10408.7191247747,70.05275998,94.26111059,92.37617808,149.723552558882,38.572,61.428,7.60011767475,
CXR,CX,Christmas Island,AS,Asia,Z999,Sin determinar,Christmas Island,CX,105.690449,-10.447525,,CX,105.690449,-10.447525,,,,,,,,26.571907966666668,91.0
CYP,CY,Cyprus,AS,Asia,EURO,Europa,Cyprus,CY,33.429859,35.126413,1251488.0,CY,33.429859,35.126413,28035.984375,90.80194644,99.76517318,99.39596129,133.932575757576,33.179,66.821,19.908516025,91.0
GEO,GE,Georgia,AS,Asia,EURO,Europa,Georgia,GE,43.356892,42.315407,3712502.0,GE,43.356892,42.315407,4255.74299321254,72.53157487,97.3481397,85.76672943,65.1302704783232,40.547,59.453,9.491058149833334,1432.0
HKG,HK,Hong Kong,AS,Asia,SEARO,Sudeste Asiático,Hong Kong,HK,114.109497,22.396428,7346100.0,HK,114.109497,22.396428,46109.2299946609,92.41313602,100.0,96.50417399,7124.7619047619,0.0,100.0,23.278638736666668,
IDN,ID,Indonesia,AS,Asia,SEARO,Sudeste Asiático,Indonesia,ID,113.921327,-0.789275,275501339.0,ID,113.921327,-0.789275,3895.61815205095,53.72649449,92.41534961,86.462642,144.796388212316,43.359,56.641,26.36355677666667,367.0
IND,IN,India,AS,Asia,SEARO,Sudeste Asiático,India,IN,78.96288,20.593684,1417173173.0,IN,78.96288,20.593684,1913.21972103493,43.40544313,90.48952503,71.26847596,469.659566660725,65.074,34.926,24.669692766666667,160.0
IOT,IO,British Indian Ocean Territory,AS,Asia,SEARO,Sudeste Asiático,British Indian Ocean Territory,IO,71.876519,-6.343194,,IO,71.876519,-6.343194,,,,,,,,,
IRN,IR,Iran,AS,Asia,EMRO,Mediterráneo Oriental,Iran (Islamic Republic of),IR,53.688046,32.427908,88550570.0,IR,53.688046,32.427908,2746.41948317956,75.56986637,97.48263633,90.26676799,53.7998107858243,24.126,75.874,19.114207876416668,1305.0
IRQ,IQ,Iraq,AS,Asia,EMRO,Mediterráneo Oriental,Iraq,IQ,43.679291,33.223191,44496122.0,IQ,43.679291,33.223191,4251.33725272808,45.7863696,98.35990325,99.96973686,98.0286551431836,29.107,70.893,23.118021520499997,312.0
ISR,IL,Israel,AS,Asia,EURO,Europa,Israel,IL,34.851612,31.046051,9550600.0,IL,34.851612,31.046051,44846.7915954816,90.12734091,100.0,99.94903563,425.836414048059,7.413,92.587,20.77745787583333,508.0
JOR,JO,Jordan,AS,Asia,EMRO,Mediterráneo Oriental,Jordan,JO,36.238414,30.585164,11285869.0,JO,36.238414,30.585164,3987.65017399411,75.44769493,98.94030296,97.08435633,123.079498614771,8.58199999999999,91.418,20.521577381750003,812.0
JPN,JP,Japan,AS,Asia,WPRO,Pacífico Occidental,Japan,JP,138.252924,36.204824,125124989.0,JP,138.252924,36.204824,39986.9286287091,90.21945812,99.07891245,99.921764,346.395061728395,8.218,91.782,12.8390879125,438.0
KAZ,KZ,Kazakhstan,AS,Asia,EURO,Europa,Kazakhstan,KZ,66.923684,48.019573,19621972.0,KZ,66.923684,48.019573,9121.63640167864,85.94259898,95.43497032,97.8671202,6.94731488683928,42.329,57.671,6.730581959416667,387.0
KGZ,KG,Kyrgyzstan,AS,Asia,EURO,Europa,Kyrgyzstan,KG,74.766098,41.20438,6803300.0,KG,74.766098,41.20438,1182.52150620357,72.0,91.69930522,97.89104384,34.3060479666319,63.144,36.856,4.554083791166668,2988.0
KHM,KH,Cambodia,AS,Asia,WPRO,Pacífico Occidental,Cambodia,KH,104.990963,12.565679,16767842.0,KH,104.990963,12.565679,1577.91173993243,53.65076745,71.21988497,68.76930002,92.8895309313392,75.768,24.232,27.347541209166668,126.0
KOR,KR,South Korea,AS,Asia,WPRO,Pacífico Occidental,Republic of Korea,KR,127.766922,35.907757,51628117.0,KR,127.766922,35.907757,31721.2980183057,96.50505968,99.93139665,99.9374936,531.109006147541,18.586,81.414,12.790910257833334,482.0
KWT,KW,Kuwait,AS,Asia,EMRO,Mediterráneo Oriental,Kuwait,KW,47.481766,29.31166,4268873.0,KW,47.481766,29.31166,24297.7011414501,99.10587017,100.0,100.0,244.693827160494,0.0,100.0,26.438711539166665,108.0
LAO,LA,Laos,AS,Asia,WPRO,Pacífico Occidental,Lao People's Democratic Republic,LA,102.495496,19.85627,7529475.0,LA,102.495496,19.85627,2593.35509719847,54.0,85.21974318,79.48011751,31.7131672443674,63.71,36.29,24.245282051666667,710.0
LBN,LB,Lebanon,AS,Asia,EMRO,Mediterráneo Oriental,Lebanon,LB,35.862285,33.854721,5489739.0,LB,35.862285,33.854721,5599.95752260733,83.1038168,92.6,99.2,553.560410557185,11.075,88.925,18.772958335000002,1250.0
LKA,LK,Sri Lanka,AS,Asia,SEARO,Sudeste Asiático,Sri Lanka,LK,80.771797,7.873054,22181000.0,LK,80.771797,7.873054,3852.38996755421,59.20997531,92.22757937,93.65293491,354.332363401229,81.287,18.713,27.6918905675,228.0
MAC,MO,Macao,AS,Asia,SEARO,Sudeste Asiático,Macao,MO,113.543873,22.198745,695168.0,MO,113.543873,22.198745,37646.4956527785,88.33262029,100.0,100.0,20555.7142857143,0.0,100.0,,
MDV,MV,Maldives,AS,Asia,SEARO,Sudeste Asiático,Maldives,MV,73.22068,3.202778,523787.0,MV,73.22068,3.202778,7282.37291624623,77.58622488,99.5444386,99.15533568,1714.79333333333,59.331,40.669,,2.0
MMR,MM,Myanmar,AS,Asia,SEARO,Sudeste Asiático,Myanmar,MM,95.956223,21.913965,54179306.0,MM,95.956223,21.913965,1477.45290479479,41.95429049,83.71819191,73.63687714,81.8533071843351,68.859,31.141,,
MNG,MN,Mongolia,AS,Asia,WPRO,Pacífico Occidental,Mongolia,MN,103.846656,46.862496,3398366.0,MN,103.846656,46.862496,4041.17414513165,65.63058022,85.49562527,67.74079142,2.1151336184565,31.343,68.657,0.5124615389166666,1528.0
MYS,MY,Malaysia,AS,Asia,WPRO,Pacífico Occidental,Malaysia,MY,101.975766,4.210484,33938221.0,MY,101.975766,4.210484,10160.8293465592,89.55501192,97.09990707,,101.05004717699,22.84,77.16,26.571893315,419.0
NPL,NP,Nepal,AS,Asia,SEARO,Sudeste Asiático,Nepal,NP,84.124008,28.394857,30547580.0,NP,84.124008,28.394857,1139.18989202387,45.84615896,90.07454179,76.61121355,204.734056505058,79.424,20.576,15.607792125666668,2565.0
OMN,OM,Oman,AS,Asia,EMRO,Mediterráneo Oriental,Oman,OM,55.923255,21.512583,4576298.0,OM,55.923255,21.512583,16707.6230063214,95.23229321,92.16802469,99.32024218,14.679802907916,13.724,86.276,28.104244046666665,310.0
PAK,PK,Pakistan,AS,Asia,EMRO,Mediterráneo Oriental,Pakistan,PK,69.345116,30.375321,235824862.0,PK,69.345116,30.375321,1322.31478270271,18.93481469,90.14896508,68.39731114,294.723875311333,62.835,37.165,21.701759156416667,900.0
PHL,PH,Philippines,AS,Asia,WPRO,Pacífico Occidental,Philippines,PH,121.774017,12.879721,115559009.0,PH,121.774017,12.879721,3224.4228110466,47.11190815,94.10903456,82.25604781,376.265140691552,52.592,47.408,27.084423992500003,442.0
PRK,KP,North Korea,AS,Asia,SEARO,Sudeste Asiático,Democratic People's Republic of Korea,KP,127.510093,40.339852,26069416.0,KP,127.510093,40.339852,,,93.84384303,84.66546354,214.828228552446,37.619,62.381,7.778653389416667,600.0
PSE,PS,Palestine,AS,Asia,EMRO,Mediterráneo Oriental,occupied Palestinian territory including east Jerusalem,PS,35.233154,31.952162,5043612.0,PS,35.233154,31.952162,3233.56863835858,74.6,97.88039722,98.57792609,797.885215946844,23.281,76.719,,
QAT,QA,Qatar,AS,Asia,EMRO,Mediterráneo Oriental,Qatar,QA,51.183884,25.354826,2695122.0,QA,51.183884,25.354826,52315.6600783117,99.65284913,99.56810194,100.0,240.242384682332,0.765000000000001,99.235,28.204603935833333,28.0
SAU,SA,Saudi Arabia,AS,Asia,EMRO,Mediterráneo Oriental,Saudi Arabia,SA,45.079162,23.885942,36408820.0,SA,45.079162,23.885942,20398.0609873699,97.8623325,100.0,100.0,16.7452548972177,15.713,84.287,26.738640109166667,665.0
SGP,SG,Singapore,AS,Asia,WPRO,Pacífico Occidental,Singapore,SG,103.819836,1.352083,5637022.0,SG,103.819836,1.352083,61274.0064626976,92.00434653,100.0,100.0,7918.95125348189,0.0,100.0,27.3154500925,
SYR,SY,Syria,AS,Asia,EMRO,Mediterráneo Oriental,Syrian Arab Republic,SY,38.996815,34.802075,22125249.0,SY,38.996815,34.802075,537.211361424552,35.78,93.92585718,89.69347966,113.122011653869,44.525,55.475,19.085811813,514.0
THA,TH,Thailand,AS,Asia,SEARO,Sudeste Asiático,Thailand,TH,100.992541,15.870032,71697030.0,TH,100.992541,15.870032,7001.78541255771,77.84374066,100.0,98.71311912,139.90421421441,48.57,51.43,26.719483058333335,287.0
TJK,TJ,Tajikistan,AS,Asia,EURO,Europa,Tajikistan,TJ,71.276093,38.861034,9952787.0,TJ,71.276093,38.861034,852.330229589791,,81.85241502,96.76531446,68.7600475538583,72.494,27.506,5.289523809833334,3186.0
TKM,TM,Turkmenistan,AS,Asia,EURO,Europa,Turkmenistan,TM,59.556278,38.969719,6430770.0,TM,59.556278,38.969719,7297.18004219407,,100.0,99.41113393,13.3007852233311,47.484,52.516,16.32453479975,230.0
TLS,TL,East Timor,AS,Asia,SEARO,Sudeste Asiático,Timor-Leste,TL,125.727539,-8.874217,1341296.0,TL,125.727539,-8.874217,1660.30830887811,34.12927356,85.4956012,56.76669456,87.4240080699395,68.68,31.32,,
TWN,TW,Taiwan,AS,Asia,Z999,Sin determinar,Taiwan,TW,120.960515,23.69781,,TW,120.960515,23.69781,,,,,,,,22.78365384583333,1150.0
UZB,UZ,Uzbekistan,AS,Asia,EURO,Europa,Uzbekistan,UZ,64.585262,41.377491,35648100.0,UZ,64.585262,41.377491,1759.30747050785,71.09999824,97.82878485,100.0,77.6853511857483,49.584,50.416,13.772209249916665,
VNM,VN,Vietnam,AS,Asia,WPRO,Pacífico Occidental,Viet Nam,VN,108.277199,14.058324,98186856.0,VN,108.277199,14.058324,3586.34729656749,70.30000012,96.88435687,89.24647713,308.359102061392,62.66,37.34,24.3113186825,398.0
YEM,YE,Yemen,AS,Asia,EMRO,Mediterráneo Oriental,Yemen,YE,48.516388,15.552727,33696614.0,YE,48.516388,15.552727,583.875662932079,,60.66356984,54.11663604,61.14750080497,62.092,37.908,27.258614468333334,999.0
ALB,AL,Albania,EU,Europe,EURO,Europa,Albania,AL,20.168331,41.153332,2775634.0,AL,20.168331,41.153332,5343.0377039956,72.23767711,95.06803883,99.29879315,103.571131386861,37.888,62.112,13.589268315166665,708.0
AND,AD,Andorra,EU,Europe,EURO,Europa,Andorra,AD,1.601554,42.546245,79824.0,AD,1.601554,42.546245,37207.2220000095,93.20564892,100.0000037,100.0000037,165.31914893617,12.084,87.916,12.257217950083332,1996.0
ANT,AN,Netherlands Antilles,EU,Europe,EURO,Europa,Netherlands Antilles,AN,-69.060087,12.226079,,AN,-69.060087,12.226079,,,,,,,,,
AUT,AT,Austria,EU,Europe,EURO,Europa,Austria,AT,14.550072,47.516231,9042528.0,AT,14.550072,47.516231,48809.2268762235,87.52942813,100.0,99.97260464,108.057004362579,41.252,58.748,7.43546245375,910.0
BEL,BE,Belgium,EU,Europe,EURO,Europa,Belgium,BE,4.469936,50.503887,11669446.0,BE,4.469936,50.503887,45517.9038182019,91.52641629,99.99999645,99.48615647,381.063540290621,1.92100000000001,98.079,10.62940796725,181.0
BGR,BG,Bulgaria,EU,Europe,EURO,Europa,Bulgaria,BG,25.48583,42.733883,6465097.0,BG,25.48583,42.733883,10153.4766003869,70.16248359,99.01141694,86.03496784,63.8726510685335,24.314,75.686,11.60728983475,472.0
BLR,BY,Belarus,EU,Europe,EURO,Europa,Belarus,BY,27.953389,53.709807,9208701.0,BY,27.953389,53.709807,6542.8645398436,85.08791245,96.53472608,97.90431818,46.211212927382,20.517,79.483,7.29557326,
CHE,CH,Switzerland,EU,Europe,EURO,Europa,Switzerland,CH,8.227512,46.818188,8769741.0,CH,8.227512,46.818188,85656.322666307,94.34995199,100.0000028,99.89987655,218.599059672745,26.085,73.915,8.155331045166667,1350.0
CZE,CZ,Czech Republic,EU,Europe,EURO,Europa,Czechia,CZ,15.472962,49.817492,10526073.0,CZ,15.472962,49.817492,22992.8793833348,81.33889705,99.88059167,99.13349732,138.575928842168,25.939,74.061,8.855068681916666,433.0
DEU,DE,Germany,EU,Europe,EURO,Europa,Germany,DE,10.451526,51.165691,84079811.0,DE,10.451526,51.165691,46772.8253507537,89.81294133,100.0000023,99.22561915,238.017318755545,22.547,77.453,9.345061355166667,263.0
DNK,DK,Denmark,EU,Europe,EURO,Europa,Denmark,DK,9.501785,56.26392,5903037.0,DK,9.501785,56.26392,60915.4243995462,96.54914573,100.0000011,99.59722947,145.7851,11.884,88.116,-16.394168498750002,34.0
ESP,ES,Spain,EU,Europe,EURO,Europa,Spain,ES,-3.74922,40.463667,47615034.0,ES,-3.74922,40.463667,26959.6754367322,93.20564892,99.92561261,99.90336421,94.815383748924,19.19,80.81,14.60164056725,660.0
EST,EE,Estonia,EU,Europe,EURO,Europa,Estonia,EE,25.013607,58.595272,1344768.0,EE,25.013607,58.595272,23595.2436836437,89.05828666,99.59078178,99.14176925,31.0999298245614,30.771,69.229,6.213739469833333,61.0
FIN,FI,Finland,EU,Europe,EURO,Europa,Finland,FI,25.748151,61.92411,5556880.0,FI,25.748151,61.92411,49169.719338849,92.17027106,100.0000033,99.44792539,18.1928768835954,14.483,85.517,2.674203755,164.0
FRA,FR,France,EU,Europe,EURO,Europa,France,FR,2.213749,46.227638,67935660.0,FR,2.213749,46.227638,39055.2829280747,84.70640914,99.9999985,98.64760678,123.404699419421,19.025,80.975,13.826482601083333,375.0
FRO,FO,Faroe Islands,EU,Europe,EURO,Europa,Faroe Islands,FO,-6.911806,61.892635,53090.0,FO,-6.911806,61.892635,61979.7954421759,,100.0,,38.3711566617862,57.602,42.398,7.518966117083334,
GBR,GB,United Kingdom,EU,Europe,EURO,Europa,The United Kingdom,GB,-3.435973,55.378051,66971411.0,GB,-3.435973,55.378051,40318.4169225055,94.81820132,99.99999856,99.1069609,277.27538544207,16.097,83.903,9.438782966583334,162.0
GGY,GG,Guernsey,EU,Europe,EURO,Europa,Guernsey,GG,-2.585278,49.465691,,GG,-2.585278,49.465691,,,,,,,,11.899539376249999,
GIB,GI,Gibraltar,EU,Europe,EURO,Europa,Gibraltar,GI,-5.345374,36.137741,32649.0,GI,-5.345374,36.137741,,,100.0,100.0,3270.9,0.0,100.0,,
GRC,GR,Greece,EU,Europe,EURO,Europa,Greece,GR,21.824312,39.074208,10566531.0,GR,21.824312,39.074208,17658.9473011189,78.11584474,100.0000023,98.99374813,82.999216446858,20.285,79.715,15.752076006000001,498.0
HRV,HR,Croatia,EU,Europe,EURO,Europa,Croatia,HR,15.2,45.1,3854000.0,HR,15.2,45.1,14236.5352454642,78.32093274,,96.56523542,72.3316654753395,42.447,57.553,12.553709248833334,331.0
HUN,HU,Hungary,EU,Europe,EURO,Europa,Hungary,HU,19.503304,47.162494,9683505.0,HU,19.503304,47.162494,16125.6094085407,84.77115202,99.99999747,97.9837035,106.839239535393,28.058,71.942,10.945816392333333,143.0
IMN,IM,Isle of Man,EU,Europe,EURO,Europa,Isle of Man,IM,-4.548056,54.236107,84519.0,IM,-4.548056,54.236107,79530.6054842568,,99.075,,147.449122807018,47.102,52.898,,
IRL,IE,Ireland,EU,Europe,EURO,Europa,Ireland,IE,-8.24389,53.41291,5086988.0,IE,-8.24389,53.41291,85420.1908556082,91.99989097,97.39970651,91.33736508,72.3672811728843,36.347,63.653,10.244651098333334,118.0
ISL,IS,Iceland,EU,Europe,EURO,Europa,Iceland,IS,-19.020835,64.963051,381900.0,IS,-19.020835,64.963051,58813.7969830876,99.5327519,99.99999721,98.78054272,3.63446394922146,6.102,93.898,2.5387445055,557.0
ITA,IT,Italy,EU,Europe,EURO,Europa,Italy,IT,12.56738,41.87194,58856847.0,IT,12.56738,41.87194,31918.6934933773,70.48342785,99.91703407,99.8851602,200.999100491348,28.961,71.039,13.84978479725,538.0
JEY,JE,Jersey,EU,Europe,EURO,Europa,Jersey,JE,-2.13125,49.214439,,JE,-2.13125,49.214439,,,,,,,,11.899539376249999,
LIE,LI,Liechtenstein,EU,Europe,EURO,Europa,Liechtenstein,LI,9.555373,47.166,39327.0,LI,9.555373,47.166,165284.497122453,94.34995199,100.0,99.95,242.225,85.584,14.416,5.8118411158333325,
LTU,LT,Lithuania,EU,Europe,EURO,Europa,Lithuania,LT,23.881275,55.169438,2833000.0,LT,23.881275,55.169438,20363.9244050084,83.05554241,98.01334724,93.93707198,44.6324656659214,31.954,68.046,7.264728479833334,110.0
LUX,LU,Luxembourg,EU,Europe,EURO,Europa,Luxembourg,LU,6.129583,49.815273,650774.0,LU,6.129583,49.815273,117370.49690016,98.82242384,99.87993254,97.59134711,244.874264894386,8.547,91.453,10.315778389333333,325.0
LVA,LV,Latvia,EU,Europe,EURO,Europa,Latvia,LV,24.603189,56.879635,1883379.0,LV,24.603189,56.879635,18207.1396408628,88.89796078,98.78260115,92.42436928,30.5391129680219,31.685,68.315,6.701875457833334,
MCO,MC,Monaco,EU,Europe,EURO,Europa,Monaco,MC,7.412841,43.750298,36469.0,MC,7.412841,43.750298,182537.304600697,84.70640914,100.0,100.0,18215.0962012827,0.0,100.0,10.145996795250001,
MDA,MD,Moldova,EU,Europe,EURO,Europa,Republic of Moldova,MD,28.369885,47.411631,2592477.0,MD,28.369885,47.411631,4376.24249318339,59.15294877,90.56996224,78.72914055,91.7473260542588,57.151,42.849,10.29124587975,139.0
MKD,MK,Macedonia,EU,Europe,EURO,Europa,North Macedonia,MK,21.745275,41.608635,2057679.0,MK,21.745275,41.608635,5965.45023195365,81.40553811,97.74281579,98.32787804,82.1780729579699,41.518,58.482,11.398377289083333,741.0
MLT,MT,Malta,EU,Europe,EURO,Europa,Malta,MT,14.375416,35.937496,523417.0,MT,14.375416,35.937496,29196.9777453786,86.85876183,100.0000004,99.96447143,1610.4125,5.256,94.744,19.575896519166665,
MNE,ME,Montenegro,EU,Europe,EURO,Europa,Montenegro,ME,19.37439,42.708678,616159.0,ME,19.37439,42.708678,7677.36914105517,77.60879306,98.85691652,97.77177272,46.1937546468401,32.512,67.488,11.235470695916668,1086.0
NLD,NL,Netherlands,EU,Europe,EURO,Europa,Netherlands,NL,5.291266,52.132633,17703090.0,NL,5.291266,52.132633,52162.5701150397,91.33333333,99.99999929,97.68577085,518.013068013068,7.764,92.236,10.684758242583333,
NOR,NO,Norway,EU,Europe,EURO,Europa,Norway,NO,8.468946,60.472024,5457127.0,NO,8.468946,60.472024,68340.0181033702,97.00000121,99.9999955,98.05107359,14.7672152298338,17.026,82.974,1.4072738095000001,460.0
POL,PL,Poland,EU,Europe,EURO,Europa,Poland,PL,19.145136,51.919438,37561599.0,PL,19.145136,51.919438,15816.8204022734,83.18488715,99.96659155,100.0000026,123.800574919152,39.957,60.043,8.72392765625,173.0
PRT,PT,Portugal,EU,Europe,EURO,Europa,Portugal,PT,-8.224454,39.399872,10379007.0,PT,-8.224454,39.399872,22242.4064179716,78.26166044,99.91199367,99.60414613,112.406676011074,33.69,66.31,15.584596612333334,372.0
ROU,RO,Romania,EU,Europe,EURO,Europa,Romania,RO,24.96676,45.943161,18956666.0,RO,24.96676,45.943161,13047.457681178,78.45526895,100.0,87.06644493,83.7328320584145,45.806,54.194,9.9866488095,414.0
RUS,RU,Russia,EU,Europe,EURO,Europa,Russian Federation,RU,105.318756,61.52401,143555736.0,RU,105.318756,61.52401,10194.44140625,84.99466978,96.99254807,89.3906766,8.79735498907911,25.246,74.754,-4.049975274333334,600.0
SJM,SJ,Svalbard,EU,Europe,EURO,Europa,Svalbard,SJ,23.670272,77.553604,,SJ,23.670272,77.553604,,,,,,,,,
SMR,SM,San Marino,EU,Europe,EURO,Europa,San Marino,SM,12.457777,43.94236,33660.0,SM,12.457777,43.94236,45321.489222868,70.48342785,100.0,100.0,566.783333333333,2.501,97.499,15.029782510166667,
SRB,RS,Serbia,EU,Europe,EURO,Europa,Serbia,RS,21.005859,44.016521,6760087.0,RS,21.005859,44.016521,7733.80349392648,78.36804864,95.29552932,97.89866471,78.8832151840842,43.554,56.446,11.112873626999999,442.0
SVK,SK,Slovakia,EU,Europe,EURO,Europa,Slovakia,SK,19.699024,48.669026,5431752.0,SK,19.699024,48.669026,19551.6211601931,89.92090413,99.78769858,97.53262546,113.536335274542,46.24,53.76,8.737570512916667,482.0
SVN,SI,Slovenia,EU,Europe,EURO,Europa,Slovenia,SI,14.995463,46.151241,2108732.0,SI,14.995463,46.151241,25545.2410027132,86.60130109,99.5,98.09979585,104.408881428657,44.882,55.118,10.924890110249999,492.0
SWE,SE,Sweden,EU,Europe,EURO,Europa,Sweden,SE,18.643501,60.128161,10486941.0,SE,18.643501,60.128161,52837.9039778149,94.53943122,99.82686763,99.2862251,25.4207233696844,12.023,87.977,3.671326465083333,320.0
TUR,TR,Turkey,EU,Europe,EURO,Europa,Türkiye,TR,35.243322,38.963745,85341241.0,TR,35.243322,38.963745,8561.0643326366,77.6695605,97.01426916,99.2249463,109.31931967309,23.895,76.105,12.702276099,
UKR,UA,Ukraine,EU,Europe,EURO,Europa,Ukraine,UA,31.16558,48.379433,38000000.0,UA,31.16558,48.379433,3751.7373046875,75.03790912,93.92828195,97.74271759,76.1685346910597,30.392,69.608,9.152506410083333,175.0
VAT,VA,Holy See (Vatican City State),EU,Europe,Z999,Sin determinar,Holy See,VA,12.453389,41.902916,,VA,12.453389,41.902916,,,,,,,,,470.0
ABW,AW,Aruba,NA,North America,AMRO,América,Aruba,AW,-69.968338,12.52111,106445.0,AW,-69.968338,12.52111,24487.863569428,,,,592.138888888889,56.303,43.697,28.674455586666667,
AIA,AI,Anguilla,NA,North America,AMRO,América,Anguilla,AI,-63.068615,18.220554,,AI,-63.068615,18.220554,,,,,,,,27.5168044875,
ATG,AG,Antigua and Barbuda,NA,North America,AMRO,América,Antigua and Barbuda,AG,-61.796428,17.060816,93763.0,AG,-61.796428,17.060816,15284.7723835378,95.68550784,,,210.6,75.567,24.433,,
BHS,BS,Bahamas,NA,North America,AMRO,América,Bahamas,BS,-77.39628,25.03428,409984.0,BS,-77.39628,25.03428,23998.2680191207,92.4760204,,,40.6064935064935,16.755,83.245,25.80099130083333,
BIH,BA,Bosnia and Herzegovina,EU,Europe,EURO,Europa,Bosnia and Herzegovina,BA,17.679076,43.915886,3233526.0,BA,17.679076,43.915886,6095.10247869327,73.21175294,96.11389762,,64.81263671875,50.98,49.02,,500.0
BLZ,BZ,Belize,NA,North America,AMRO,América,Belize,BZ,-88.49765,17.189877,405272.0,BZ,-88.49765,17.189877,5266.87616004213,59.50638944,98.40195463,88.21427557,17.3135028496274,53.975,46.025,25.709029304166666,173.0
BMU,BM,Bermuda,NA,North America,AMRO,América,Bermuda,BM,-64.75737,32.321384,63532.0,BM,-64.75737,32.321384,107791.886435134,,99.90314002,99.90314002,1183.2037037037,0.0,100.0,,
BRB,BB,Barbados,NA,North America,AMRO,América,Barbados,BB,-59.543198,13.193887,281635.0,BB,-59.543198,13.193887,16643.8065787177,82.458446,98.51445042,98.09246231,652.774418604651,68.809,31.191,27.346887363333334,
CAN,CA,Canada,NA,North America,AMRO,América,Canada,CA,-106.346771,56.130366,38929902.0,CA,-106.346771,56.130366,43349.677855557,92.3,99.22181066,99.03286158,4.23922642012405,18.438,81.562,-3.6288901100833333,487.0
CRI,CR,Costa Rica,NA,North America,AMRO,América,Costa Rica,CR,-83.753428,9.748917,5180829.0,CR,-83.753428,9.748917,12179.2566742377,80.53018608,99.81053693,97.91499372,100.33499804152,19.229,80.771,26.30870879,746.0
CUB,CU,Cuba,NA,North America,AMRO,América,Cuba,CU,-77.781167,21.521757,11212191.0,CU,-77.781167,21.521757,9499.59020230432,71.11907507,97.00269616,91.35635221,108.869922928709,22.806,77.194,26.082505493333333,108.0
CYM,KY,Cayman Islands,NA,North America,AMRO,América,Cayman Islands,KY,-80.566956,19.513469,68706.0,KY,-80.566956,19.513469,83897.5052077489,,,,280.4625,0.0,100.0,27.419653388333334,
DMA,DM,Dominica,NA,North America,AMRO,América,Dominica,DM,-61.370976,15.414999,72737.0,DM,-61.370976,15.414999,7003.46989117043,77.0650479,,,95.9933333333333,28.91,71.09,27.0069423075,
DOM,DO,Dominican Republic,NA,North America,AMRO,América,Dominican Republic,DO,-70.162651,18.735693,11228821.0,DO,-70.162651,18.735693,7167.91493205787,82.19830578,96.68681192,87.17818151,227.689174084041,17.46,82.54,26.389470239166666,424.0
GLP,GP,Guadeloupe,NA,North America,AMRO,América,Guadeloupe,GP,-62.067641,16.995971,,GP,-62.067641,16.995971,,,,,,,,27.233882325,
GRD,GD,Grenada,NA,North America,AMRO,América,Grenada,GD,-61.604171,12.262776,125438.0,GD,-61.604171,12.262776,8437.5367823125,74.72185387,,,363.714705882353,63.463,36.537,27.623688645,
GRL,GL,Greenland,NA,North America,EURO,Europa,Greenland,GL,-42.604303,71.706936,56661.0,GL,-42.604303,71.706936,54693.5114093342,,100.0000017,99.59723347,0.137329760019491,12.718,87.282,-16.917413003916668,1792.0
GTM,GT,Guatemala,NA,North America,AMRO,América,Guatemala,GT,-90.230759,15.783471,17357886.0,GT,-90.230759,15.783471,4609.89725752869,47.51234167,94.00642827,67.92858108,157.319270250093,48.164,51.836,23.7738021975,759.0
HND,HN,Honduras,NA,North America,AMRO,América,Honduras,HN,-86.241905,15.199999,10432860.0,HN,-86.241905,15.199999,2354.12148010105,43.48954646,95.68922113,83.77658071,90.4617302708017,41.641,58.359,25.374557693333333,684.0
HTI,HT,Haiti,NA,North America,AMRO,América,Haiti,HT,-72.285215,18.971187,11584996.0,HT,-72.285215,18.971187,1283.14122784667,36.39474796,66.6953084,37.12173441,410.261284470247,42.912,57.088,27.079972526666666,470.0
JAM,JM,Jamaica,NA,North America,AMRO,América,Jamaica,JM,-77.297508,18.109581,2827377.0,JM,-77.297508,18.109581,4897.26477019956,79.43244028,91.0299445,86.60642453,260.428070175439,43.689,56.311,26.823438643333333,18.0
KNA,KN,Saint Kitts and Nevis,NA,North America,AMRO,América,Saint Kitts and Nevis,KN,-62.782998,17.357822,47657.0,KN,-62.782998,17.357822,18566.0178460649,80.35854111,,,183.238461538462,69.157,30.843,,
MSR,MS,Montserrat,NA,North America,AMRO,América,Montserrat,MS,-62.187366,16.742498,,MS,-62.187366,16.742498,,,,,,,,27.289261446666668,
SPM,PM,Saint Pierre and Miquelon,NA,North America,AMRO,América,Saint Pierre and Miquelon,PM,-56.27111,46.941936,,PM,-56.27111,46.941936,,,,,,,,,
VIR,VI,US Virgin Islands,NA,North America,Z999,Sin determinar,United States Virgin Islands,VI,-64.896335,18.335765,105413.0,VI,-64.896335,18.335765,39552.1685953523,,98.71826738,99.37127753,303.685714285714,4.06100000000001,95.939,,
ASM,AS,American Samoa,OC,Oceania,WPRO,Pacífico Occidental,American Samoa,AS,-170.132217,-14.270972,44273.0,AS,-170.132217,-14.270972,15501.5263374397,,99.77377166,54.45476038,230.945,12.847,87.153,27.250702381666667,
AUS,AU,Australia,OC,Oceania,WPRO,Pacífico Occidental,Australia,AU,133.775136,-25.274398,25978935.0,AU,133.775136,-25.274398,51722.0690001531,96.39446689,99.96981182,99.99115238,3.33531231068042,13.759,86.241,22.284413004166666,330.0
COK,CK,Cook Islands,OC,Oceania,WPRO,Pacífico Occidental,Cook Islands,CK,-159.777671,-21.236736,,CK,-159.777671,-21.236736,,,,,,,,,
FJI,FJ,Fiji,OC,Oceania,WPRO,Pacífico Occidental,Fiji,FJ,179.414413,-16.578193,929766.0,FJ,179.414413,-16.578193,4864.10600771307,84.8767809,94.30106524,99.16077717,50.3788724685276,42.753,57.247,25.67336080583333,
FSM,FM,Micronesia,OC,Oceania,WPRO,Pacífico Occidental,Micronesia (Federated States of),FM,150.550812,7.425554,114164.0,FM,150.550812,7.425554,3639.41269869588,40.12946709,,,160.151428571429,77.067,22.933,,
GUM,GU,Guam,OC,Oceania,WPRO,Pacífico Occidental,Guam,GU,144.793731,13.444304,171774.0,GU,144.793731,13.444304,34780.8616624614,,99.6952,,313.390740740741,5.062,94.938,27.423331503333333,
KIR,KI,Kiribati,OC,Oceania,WPRO,Pacífico Occidental,Kiribati,KI,-168.734039,-3.370417,131232.0,KI,-168.734039,-3.370417,1403.99373815921,45.14804292,77.97092085,45.57596312,156.127160493827,44.406,55.594,27.471991299166664,
MHL,MH,Marshall Islands,OC,Oceania,WPRO,Pacífico Occidental,Marshall Islands,MH,171.184478,7.131474,41569.0,MH,171.184478,7.131474,5567.97272706332,,88.57204698,84.15036532,241.183333333333,22.206,77.794,,
MNP,MP,Northern Mariana Islands,OC,Oceania,WPRO,Pacífico Occidental,Northern Mariana Islands (Commonwealth of the),MP,145.38469,17.33083,49551.0,MP,145.38469,17.33083,17302.9221368504,,100.0,79.11631606,107.797826086957,8.202,91.798,27.423331503333333,
NCL,NC,New Caledonia,OC,Oceania,WPRO,Pacífico Occidental,New Caledonia,NC,165.618042,-20.904305,276780.0,NC,165.618042,-20.904305,34700.9816157681,,99.30532057,100.0,14.9048140043764,28.482,71.518,23.429723900833334,
NFK,NF,Norfolk Island,OC,Oceania,Z999,Sin determinar,Norfolk Island,NF,167.954712,-29.040835,,NF,167.954712,-29.040835,,,,,,,,,
NIU,NU,Niue,OC,Oceania,WPRO,Pacífico Occidental,Niue,NU,-169.867233,-19.054445,,NU,-169.867233,-19.054445,,,,,,,,25.7621868125,
NRU,NR,Nauru,OC,Oceania,WPRO,Pacífico Occidental,Nauru,NR,166.931503,-0.522778,12668.0,NR,166.931503,-0.522778,10124.7004971896,76.6826512,100.0,,615.75,0.0,100.0,,
NZL,NZ,New Zealand,OC,Oceania,WPRO,Pacífico Occidental,New Zealand,NZ,174.885971,-40.900557,5124100.0,NZ,174.885971,-40.900557,41760.5947839997,92.8650738,100.0000013,100.0000013,19.3315863430937,13.301,86.699,11.004740383833335,388.0
PCN,PN,Pitcairn,OC,Oceania,WPRO,Pacífico Occidental,Pitcairn Islands,PN,-127.439308,-24.703615,,PN,-127.439308,-24.703615,,,,,,,,,
PLW,PW,Palau,OC,Oceania,WPRO,Pacífico Occidental,Palau,PW,134.58252,7.51498,18055.0,PW,134.58252,7.51498,14016.2474961051,,99.6575455,99.62327456,39.0695652173913,19.012,80.988,27.73867216083333,
PNG,PG,Papua New Guinea,OC,Oceania,WPRO,Pacífico Occidental,Papua New Guinea,PG,143.95555,-6.314993,10142619.0,PG,143.95555,-6.314993,2446.08441340059,27.73001017,45.34401752,19.22383321,21.5290376716866,86.655,13.345,24.957375,667.0
PYF,PF,French Polynesia,OC,Oceania,WPRO,Pacífico Occidental,French Polynesia,PF,-149.406843,-17.679742,306279.0,PF,-149.406843,-17.679742,18984.6173795396,,100.0,97.00338108,86.9835782195333,38.025,61.975,26.782479395833334,
SLB,SB,Solomon Islands,OC,Oceania,WPRO,Pacífico Occidental,Solomon Islands,SB,160.156194,-9.64571,724273.0,SB,160.156194,-9.64571,2222.46214297336,35.88145793,67.30102554,34.75592548,24.6942122186495,75.33,24.67,27.3093594325,514.0
TKL,TK,Tokelau,OC,Oceania,WPRO,Pacífico Occidental,Tokelau,TK,-171.855881,-8.967363,,TK,-171.855881,-8.967363,,,,,,,,,
TON,TO,Tonga,OC,Oceania,WPRO,Pacífico Occidental,Tonga,TO,-175.198242,-21.178986,106858.0,TO,-175.198242,-21.178986,4605.97087843701,66.64843101,98.73108083,92.89333236,146.186111111111,76.901,23.099,23.904578295833332,
TUV,TV,Tuvalu,OC,Oceania,WPRO,Pacífico Occidental,Tuvalu,TV,177.64933,-7.109535,11312.0,TV,177.64933,-7.109535,4674.90908818494,,100.0,,368.966666666667,35.986,64.014,,
UMI,UM,United States Minor Outlying Islands,OC,Oceania,Z999,Sin determinar,United States Minor Outlying Islands,UM,-177.0,0.0,,UM,,,,,,,,,,,
VUT,VU,Vanuatu,OC,Oceania,WPRO,Pacífico Occidental,Vanuatu,VU,166.959158,-15.376706,326740.0,VU,166.959158,-15.376706,2917.75684908933,53.27502287,91.23119075,52.70704482,25.5689089417555,74.475,25.525,,
WLF,WF,Wallis and Futuna,OC,Oceania,WPRO,Pacífico Occidental,Wallis and Futuna,WF,-177.156097,-13.768752,,WF,-177.156097,-13.768752,,,,,,,,,
WSM,WS,Samoa,OC,Oceania,WPRO,Pacífico Occidental,Samoa,WS,-172.104629,-13.759029,222382.0,WS,-172.104629,-13.759029,4042.72271474144,69.20598813,91.83772455,96.76586368,77.3125899280575,82.111,17.889,26.9655087,
ARG,AR,Argentina,SA,South America,AMRO,América,Argentina,AR,-63.616672,-38.416097,46234830.0,AR,-63.616672,-38.416097,8496.428156755,85.51438646,,,16.580892611147,7.889,92.111,15.288615385,595.0
BOL,BO,Bolivia,SA,South America,AMRO,América,Bolivia (Plurinational State of),BO,-63.588653,-16.290154,12224110.0,BO,-63.588653,-16.290154,3068.81255516456,59.94010155,93.39007163,65.75642485,11.0183347179913,29.877,70.123,21.3740641025,1192.0
BRA,BR,Brazil,SA,South America,AMRO,América,Brazil,BR,-51.92528,-14.235004,215313498.0,BR,-51.92528,-14.235004,6923.70019715065,81.34269353,99.32085299,90.07847103,25.5076253807665,12.927,87.073,25.58887591583333,320.0
CHL,CL,Chile,SA,South America,AMRO,América,Chile,CL,-71.542969,-35.675147,19603733.0,CL,-71.542969,-35.675147,13165.3863429858,86.37099516,99.99999872,99.99999872,25.9576117773008,12.273,87.727,9.952012820583333,1871.0
COL,CO,Colombia,SA,South America,AMRO,América,Colombia,CO,-74.297333,4.570868,51874024.0,CO,-74.297333,4.570868,5304.28912886637,70.84997062,97.49165711,93.68063058,45.9041568273997,18.575,81.425,25.461909340833333,593.0
CUW,CW,Curaçao,SA,South America,AMRO,América,Curaçao,,-68.98,12.17,149996.0,,,,16109.8617501685,,,,348.97972972973,10.938,89.062,28.115303570833333,
ECU,EC,Ecuador,SA,South America,AMRO,América,Ecuador,EC,-78.183406,-1.831239,18001000.0,EC,-78.183406,-1.831239,5645.19928965332,70.7,95.35976356,91.52492213,70.8189523272669,35.834,64.166,22.461978022500002,1117.0
FLK,FK,Falkland Islands (Malvinas),SA,South America,AMRO,América,Falkland Islands (Malvinas),FK,-59.523613,-51.796253,,FK,-59.523613,-51.796253,,,,,,,,,
GUF,GF,French Guiana,SA,South America,AMRO,América,French Guiana,GF,-53.125782,3.933889,,GF,-53.125782,3.933889,,,,,,,,26.6455123625,207.0
GUY,GY,Guyana,SA,South America,AMRO,América,Guyana,GY,-58.93018,4.860416,808726.0,GY,-58.93018,4.860416,6863.07434593017,81.8019792,95.55480685,85.78250661,4.04979425958852,73.214,26.786,26.804067307500002,207.0
PER,PE,Peru,SA,South America,AMRO,América,Peru,PE,-75.015152,-9.189967,34049588.0,PE,-75.015152,-9.189967,6063.62657980167,65.25179796,93.13936621,78.57670211,26.019340625,21.703,78.297,20.385819139166667,1155.0
PRY,PY,Paraguay,SA,South America,AMRO,América,Paraguay,PY,-58.443832,-23.442503,6780744.0,PY,-58.443832,-23.442503,5353.34804464198,73.95751114,99.59346633,92.7207854,16.6591870123332,37.817,62.183,24.037329670000002,178.0
SUR,SR,Suriname,SA,South America,AMRO,América,Suriname,SR,-56.027783,3.919305,618040.0,SR,-56.027783,3.919305,4796.53331389928,62.08563779,97.98963167,89.95421143,3.89144230769231,33.851,66.149,27.078423994166666,246.0
URY,UY,Uruguay,SA,South America,AMRO,América,Uruguay,UY,-55.765835,-32.522779,3422794.0,UY,-55.765835,-32.522779,15650.4994274155,86.31019103,99.49575756,98.05452933,19.5925379956576,4.485,95.515,17.987665750833333,109.0
VEN,VE,Venezuela,SA,South America,AMRO,América,Venezuela (Bolivarian Republic of),VE,-66.58973,6.42375,28301696.0,VE,-66.58973,6.42375,,,93.68580071,95.75957043,32.3002698259736,11.721,88.279,25.828096153333334,450.0
Z99,Z9,Sin determinar,Z9,Sin determinar,Z999,Sin determinar,Sin determinar,,,,,,,,,,,,,,,,
LCA,LC,Saint Lucia,NA,North America,AMRO,América,Saint Lucia,LC,-60.978893,13.909444,179857.0,LC,-60.978893,13.909444,8458.07506262658,77.53773417,96.88784457,83.36810833,293.831147540984,81.159,18.841,27.533510073333332,
MEX,MX,Mexico,NA,North America,AMRO,América,Mexico,MX,-102.552784,23.634501,127504125.0,MX,-102.552784,23.634501,8654.99732516958,71.49017499,99.67956828,92.42406261,64.8156084261426,19.269,80.731,21.271659799166667,1111.0
MTQ,MQ,Martinique,NA,North America,AMRO,América,Martinique,MQ,-61.024174,14.641528,,MQ,-61.024174,14.641528,,,,,,,,27.0069423075,
NIC,NI,Nicaragua,NA,North America,AMRO,América,Nicaragua,NI,-85.207229,12.865416,6948392.0,NI,-85.207229,12.865416,1876.60737169569,53.4046527,81.7087538,73.02109747,56.1400614924381,40.988,59.012,26.6640673075,298.0
PAN,PA,Panama,NA,North America,AMRO,América,Panama,PA,-80.782127,8.537981,4408581.0,PA,-80.782127,8.537981,13293.3332050433,65.54188027,94.37254436,84.57385023,57.8915610676732,31.586,68.414,27.0030599825,360.0
PRI,PR,Puerto Rico,NA,North America,AMRO,América,Puerto Rico,PR,-66.590149,18.220833,3221789.0,PR,-66.590149,18.220833,31427.4291136799,,100.0,100.0,369.961330326945,6.419,93.581,26.337610805,261.0
SLV,SV,El Salvador,NA,North America,AMRO,América,El Salvador,SV,-88.89653,13.794185,6336392.0,SV,-88.89653,13.794185,3961.72663347599,54.60136976,97.94657541,82.44975254,303.703233590734,26.556,73.444,25.580521520833333,442.0
SSD,SS,Sudán del Sur,AF,Africa,AFRO,Africa,Sudán del Sur,,,,10913164.0,,,,,6.5,40.95092717,15.84481734,16.7838637190828,79.801,20.199,,
TCA,TC,Turks and Caicos Islands,NA,North America,AMRO,América,Turks and Caicos Islands,TC,-71.797928,21.694025,45703.0,TC,-71.797928,21.694025,20882.2612702141,,,,46.6063157894737,6.395,93.605,,
TTO,TT,Trinidad and Tobago,NA,North America,AMRO,América,Trinidad and Tobago,TT,-61.222503,10.691803,1531044.0,TT,-61.222503,10.691803,13871.7982158614,78.67115844,98.87517077,93.91521101,295.935087719298,46.786,53.214,,83.0
USA,US,United States,NA,North America,AMRO,América,United States of America,US,-95.712891,37.09024,333287557.0,US,-95.712891,37.09024,63528.6343027508,90.62047017,99.88352668,99.67961928,36.2409851083694,17.336,82.664,9.661949633833332,760.0
VCT,VC,Saint Vincent and the Grenadines,NA,North America,AMRO,América,Saint Vincent and the Grenadines,VC,-61.287228,12.984305,103948.0,VC,-61.287228,12.984305,8306.36758115851,80.429529,,,268.28717948718,46.968,53.032,,
VGB,VG,British Virgin Islands,NA,North America,AMRO,América,British Virgin Islands,VG,-64.639968,18.420695,31305.0,VG,-64.639968,18.420695,,,99.86438356,,206.066666666667,51.485,48.515,27.242332875,
BLM,BL,San Bartolomé,NA,North America,AMRO,América,Saint Barthélemy,,-62.83,17.9,,,,,,,,,,,,,
MAF,MF,San Martín,NA,North America,AMRO,América,Saint Martin,,,,31791.0,,,,,,99.99927139,100.0,651.06,,,,
SXM,SX,San Martín,NA,North America,AMRO,América,San Martín,,,,43389.0,,,,29314.0942947043,,,,1244.41176470588,0.0,100.0,,
